State,District,Latitude,Longitude,District code,Population,Hindus,Muslims,Others_Religions,ST,SC,LPG_or_PNG_Households,Housholds_with_Electric_Lighting,Households_with_Internet,Sex_ratio,Literate_Ratio,Working_Ratio,Age_Below_50,Age_Above_50
Andhra Pradesh,Adilabad,19.284513950073435,78.81321233480176,532,2741239,2399901,275970,322,495794,488596,194954,566108,5512,1001.49,54.11,48.29,81.75,15.41
Andhra Pradesh,Anantapur,14.312065561843148,77.4601584478577,553,4081148,3599372,443456,309,154127,583135,223016,897970,8606,976.83,56.63,49.89,80.71,18.12
Andhra Pradesh,Chittoor,13.33109263067696,78.92763898886037,554,4174064,3737588,397870,358,159165,785760,324406,944555,13763,996.96,63.92,46.32,79.23,19.34
Andhra Pradesh,East Godavari,16.782718320784902,82.2432074720511,545,5154296,4983330,77777,403,213195,945269,479914,1297273,22411,1005.81,63.8,40.62,81.55,18.39
Andhra Pradesh,Guntur,15.884925767634847,80.58657614107885,548,4887813,4217597,559770,332,247089,957407,648568,1186028,19383,1002.77,60.57,48.73,80.92,19.0
Andhra Pradesh,Hyderabad,17.38971555555556,78.46668888888888,536,3943323,2046051,1713405,1929,48937,247927,581509,869721,149034,953.52,73.34,35.84,84.13,13.76
Andhra Pradesh,Karimnagar,18.515483193277312,79.43765428571413,534,3776269,3491139,244723,115,106745,709757,344667,926768,8831,1007.8,58.44,49.7,78.7,19.29
Andhra Pradesh,Khammam,17.683921325051784,80.67008643892335,541,2797370,2595321,158887,539,765565,462896,219710,668519,8628,1011.07,58.28,50.41,82.41,17.09
Andhra Pradesh,Krishna,16.143872753151673,81.14805061000413,547,4517398,4023678,307043,906,132464,871063,632890,1163932,30438,992.35,66.63,45.36,80.26,18.46
Andhra Pradesh,Kurnool,15.43759715142429,77.90086836581717,552,4053463,3328380,670737,434,82831,737945,195001,816721,10081,987.74,52.48,50.07,84.43,15.02
Andhra Pradesh,Mahbubnagar,16.639546224256293,77.98933089244859,538,4053028,3673456,334172,267,364269,708954,136843,757821,6153,976.71,47.88,51.38,83.6,15.73
Andhra Pradesh,Medak,17.889304978038055,78.13778901903379,535,3033288,2637313,342449,217,168985,537947,163074,604719,8635,991.61,53.97,47.55,82.93,16.79
Andhra Pradesh,Nalgonda,17.113250515463907,79.16984453608244,539,3488809,3249231,188646,132,394279,637385,228818,789225,7715,982.53,57.36,49.92,81.1,18.68
Andhra Pradesh,Nizamabad,18.429485849056604,78.07523490566035,533,2551335,2123426,391596,146,192941,371074,186740,545913,5261,1040.02,54.47,49.43,81.38,17.15
Andhra Pradesh,Prakasam,15.489039001601704,80.11665790176184,549,3397448,3150195,220654,206,151145,787861,290947,763746,6151,981.29,56.05,50.05,80.95,18.89
Andhra Pradesh,Srikakulam,18.570900998697432,84.25874814010675,542,2703114,2666950,9025,106,166118,255664,149554,615432,3988,1014.64,55.32,47.73,80.3,19.56
Andhra Pradesh,Vizianagaram,18.28329696032972,83.45982854198873,543,2344474,2299129,16423,183,235556,247728,140361,527736,4453,1018.53,52.82,49.39,79.88,19.26
Andhra Pradesh,Warangal,18.01752608695651,79.87422028985509,540,3512576,3273755,197333,126,530656,616102,237349,828077,12952,996.6,58.79,48.56,80.66,18.93
Andhra Pradesh,West Godavari,16.63297943925236,81.45912990654196,546,3936966,3733191,86142,211,109072,811698,435334,1017568,12050,1003.63,67.37,45.04,80.75,19.19
Arunachal Pradesh,Changlang,27.36048479338845,96.37552644628106,253,148226,47683,2134,11738,53878,0,4762,14593,170,926.31,49.37,42.48,88.82,11.07
Arunachal Pradesh,East Kameng,27.371194055944056,93.04741486013997,247,78690,12333,652,27868,72400,0,3583,5318,57,1029.4,48.86,40.3,91.08,8.84
Arunachal Pradesh,East Siang,28.15382352941176,95.06499226006191,251,99214,27854,2289,49393,69979,0,4866,14231,450,979.69,63.07,40.54,88.02,11.9
Arunachal Pradesh,Kurung Kumey,28.04853351800553,93.24531994459834,256,92076,4859,471,34158,90764,0,586,3911,95,1031.78,39.76,41.32,92.41,7.42
Arunachal Pradesh,Lohit,27.946785273972623,96.59670770547945,259,145726,99020,3846,7277,47410,0,6549,17157,312,911.89,57.0,41.82,89.47,10.43
Arunachal Pradesh,Lower Dibang Valley,28.32651730103806,95.76567335640142,258,54080,28915,2247,10393,25974,0,3068,5932,207,927.78,58.89,41.28,89.49,10.45
Arunachal Pradesh,Lower Subansiri,27.70849297297297,93.96226108108112,255,83030,9551,1482,37085,72911,0,4211,12493,381,984.32,65.11,36.37,91.01,8.93
Arunachal Pradesh,Papum Pare,27.273529716981127,93.54468183962264,248,176573,57027,6148,22586,117216,0,22966,30539,2477,979.92,68.55,37.25,93.11,6.71
Arunachal Pradesh,Tawang,27.680683962264148,91.82504245283016,245,49977,11842,787,349,34811,0,3794,8635,96,714.42,52.17,57.15,89.16,10.8
Arunachal Pradesh,Tirap,26.94406229508198,95.41470327868862,254,111975,20682,1103,5325,98372,0,3104,16026,98,943.88,42.84,44.8,87.03,12.88
Arunachal Pradesh,Upper Siang,28.8309244897959,95.00155765306124,252,35320,5261,411,20967,28468,0,1504,6198,97,888.87,51.51,49.95,84.94,14.87
Arunachal Pradesh,Upper Subansiri,28.277196566523585,93.8991435622318,249,83448,13474,521,59449,78323,0,3123,5373,139,998.37,54.26,39.99,91.21,8.66
Arunachal Pradesh,West Kameng,27.46486582278483,92.65015750452083,246,83947,31265,1970,5556,46380,0,7133,14188,202,818.81,57.77,50.62,89.8,10.12
Arunachal Pradesh,West Siang,28.106296920289843,94.53510344202908,250,112274,15881,2218,60005,92783,0,6115,14204,303,930.17,57.67,43.8,87.93,12.0
Assam,Barpeta,26.427872264631056,90.97912010178116,303,1693622,492966,1198036,14,27344,95320,50806,84804,2078,953.42,52.97,33.17,87.23,12.72
Assam,Bongaigaon,26.45012521994133,90.6734296187684,319,738804,359145,371033,9,18835,82784,29937,49866,2523,965.86,58.75,34.62,87.12,12.85
Assam,Cachar,24.815570668693017,92.86849650455927,316,1736617,1038985,654816,98,17569,264897,62135,140205,5316,959.44,67.61,35.01,86.02,13.92
Assam,Darrang,26.58463215962442,92.04141338028155,325,928500,327322,597392,19,8419,40260,17676,45444,1166,953.61,52.45,34.99,87.23,12.72
Assam,Dhemaji,27.586533438485816,94.71336908517353,308,686133,655052,13475,6315,325560,44225,16547,28195,1192,953.41,61.65,46.17,88.01,11.96
Assam,Dibrugarh,27.30612284482757,95.0998282327587,310,1326335,1198401,64526,46,102871,58876,76292,136685,8817,960.78,66.69,42.26,85.88,14.08
Assam,Goalpara,26.017277777777807,90.59869891598912,302,1008183,347878,579929,103,231570,45094,21455,78641,1364,964.15,55.9,35.96,88.31,11.65
Assam,Golaghat,26.377219709794485,93.82583397823468,313,1066888,917426,90312,1347,111765,62298,40889,82345,3073,964.22,67.65,44.98,86.07,13.89
Assam,Hailakandi,24.457496089385486,92.59154664804475,318,659296,251194,397653,636,691,70659,11035,44143,1211,951.21,61.79,32.5,87.39,12.57
Assam,Jorhat,26.76244824016563,94.30197722567289,312,1092256,1008219,54684,578,139971,88665,71639,122063,5651,961.65,72.78,45.65,84.27,15.66
Assam,Kamrup,26.170939452054807,91.58863273972592,321,1517542,877495,601784,55,182038,107827,70272,122191,3109,949.41,65.59,41.45,85.93,14.02
Assam,Karbi Anglong,26.08966454598031,93.11536570271832,314,956313,766000,20290,3568,538738,44961,18763,53918,1923,950.99,58.27,40.1,89.13,10.78
Assam,Karimganj,24.69660712250711,92.3679498575498,317,1228686,521962,692489,110,1940,157890,28261,70951,1933,963.18,64.73,32.49,86.61,13.35
Assam,Kokrajhar,26.497246635730868,90.13997470997688,300,887142,529068,252271,123,278665,29570,15089,41373,1218,958.78,55.16,38.45,87.63,12.28
Assam,Lakhimpur,27.14128805970149,94.0775949253732,307,1042137,797130,193476,2410,249426,81840,32104,60296,1948,967.51,65.59,41.26,87.15,12.82
Assam,Nagaon,26.26462170626351,92.9306191144708,305,2823768,1225246,1563203,61,115153,266350,89206,195631,5121,962.16,60.58,34.71,86.99,12.97
Assam,Nalbari,26.46323767605632,91.40598521126763,323,771639,491582,277488,9,23364,60216,37849,68313,1631,948.55,68.91,34.68,84.67,15.27
Assam,Sonitpur,26.73514926829268,92.85197804878044,306,1924110,1422824,350536,221,232207,109130,70047,133368,4358,955.59,57.61,40.05,86.34,13.6
Assam,Tinsukia,27.53549291139241,95.69055949367085,309,1327929,1181347,48373,395,82066,37688,70471,161718,5135,952.17,60.12,41.96,86.75,13.21
Bihar,Araria,26.211528119180603,87.30766554934816,209,2811569,1593525,1207442,63,38848,382654,17004,43290,2561,921.35,42.53,38.05,88.38,11.53
Bihar,Aurangabad,24.774291867469877,84.45986024096379,235,2540073,2291133,237353,19,1033,612064,24106,44456,2362,926.22,57.71,32.98,86.28,13.42
Bihar,Aurangabad,24.774291867469877,84.45986024096379,515,3701282,2545438,786677,1005,143366,539368,246324,589477,23258,923.27,67.65,42.55,84.34,15.45
Maharashtra,Aurangabad,20.0979228832952,75.32072196796334,235,2540073,2291133,237353,19,1033,612064,24106,44456,2362,926.22,57.71,32.98,86.28,13.42
Maharashtra,Aurangabad,20.0979228832952,75.32072196796334,515,3701282,2545438,786677,1005,143366,539368,246324,589477,23258,923.27,67.65,42.55,84.34,15.45
Bihar,Banka,24.832355642023337,86.8664916342413,225,2034763,1772655,250925,1035,90432,247858,15459,62359,1704,906.74,47.44,37.9,86.17,13.7
Bihar,Begusarai,25.54302613168723,86.12560144032932,222,2970541,2554330,407348,57,1597,432270,49493,120373,4644,894.89,52.13,31.58,87.41,12.46
Bihar,Bhagalpur,25.277192885375477,87.04213814229242,224,3037766,2487866,537098,32,67180,318569,63241,174534,6764,880.2,51.78,32.38,86.5,13.09
Bihar,Bhojpur,25.50666439393939,84.49407803030304,231,2728407,2518216,197819,48,13977,425402,45763,62153,3661,907.47,58.61,30.15,85.6,14.2
Bihar,Buxar,25.48593018867924,84.08808081760995,232,1706352,1591454,105423,57,26824,251737,27362,46760,1784,921.62,58.01,31.55,84.98,14.89
Bihar,Darbhanga,26.146187719298258,85.97387352472099,215,3937385,3042729,881476,101,2772,615688,59510,127442,6280,911.4,46.14,31.08,86.39,13.44
Bihar,Gaya,24.7266541547278,84.94291217765044,236,4391418,3876395,488121,108,3098,1334351,57738,112617,6856,937.48,52.32,37.89,85.32,12.24
Bihar,Gopalganj,26.44874364161851,84.34636127167629,217,2562012,2119262,436057,28,60807,320064,31193,69375,3707,1021.05,53.98,28.42,85.44,14.47
Bihar,Jamui,24.78418380462726,86.26316298200514,238,1760405,1525746,217621,3438,78793,302649,12984,32633,1839,921.71,48.77,41.33,86.8,12.9
Bihar,Jehanabad,25.155679045643165,84.9208124481328,239,1125313,1045117,75742,58,1285,222974,15507,27641,1106,921.7,55.0,32.47,86.09,13.78
Bihar,Katihar,25.56565356037151,87.70466083591326,212,3071029,1684589,1365645,2141,179971,263100,32570,60900,2941,918.88,41.69,33.0,88.39,11.51
Bihar,Khagaria,25.53558891454964,86.56593256351037,223,1666886,1486989,175588,115,675,247161,15401,40641,1580,886.07,46.08,33.64,88.2,11.75
Bihar,Kishanganj,26.324336758321294,87.95045007235886,210,1690400,531236,1149095,28,64224,113118,11715,58718,1093,949.78,44.08,31.3,88.78,11.15
Bihar,Lakhisarai,25.183449321266963,86.12825701357468,227,1000912,956396,40886,52,8333,153209,12938,44491,1186,901.63,50.68,32.63,86.87,13.05
Bihar,Madhepura,25.77341929460581,86.8978443983403,213,2001762,1753829,241760,81,12532,346275,12302,23236,1397,910.88,41.69,38.84,87.72,12.11
Bihar,Madhubani,26.41380538172716,86.16328360450552,207,4487379,3652168,818912,169,3990,587158,47090,113281,5319,926.48,48.03,36.48,86.24,13.64
Bihar,Munger,25.198537962962963,86.54173672839504,226,1367765,1252319,110416,61,21404,183846,49141,90461,2653,876.12,58.62,31.19,86.04,13.77
Bihar,Muzaffarpur,26.18664417177915,85.32745092024543,216,4801062,4032773,745546,98,5979,751975,87796,180651,10290,899.53,52.26,32.23,85.31,14.52
Bihar,Nalanda,25.229345508982053,85.48053113772461,229,2877653,2669775,198033,64,1442,607672,43761,101378,4156,922.2,52.82,36.33,85.88,14.01
Bihar,Nawada,24.825708836206903,85.61594568965519,237,2219146,1964620,244394,80,2045,565112,20522,31162,1841,938.68,49.16,36.82,86.81,13.01
Bihar,Pashchim Champaran,27.16064352201258,84.30265911949685,203,3935042,3047427,865090,1895,250046,553944,38414,57546,3495,909.19,44.71,37.58,87.23,12.65
Bihar,Patna,25.40297114503818,85.3198433587787,230,5838465,5356075,439952,203,9069,920918,321307,546859,40692,896.52,59.26,32.23,85.8,13.97
Bihar,Purba Champaran,26.68129336734693,85.00382155612242,204,5099371,4086453,990349,104,12461,649726,52358,74979,7719,901.89,44.65,34.07,87.05,12.71
Bihar,Purnia,25.81714801901739,87.40447606973065,211,3264619,1989420,1255641,650,139490,390991,33688,86058,4170,921.08,40.81,35.02,87.36,11.42
Bihar,Rohtas,24.99170460829495,83.9350762672811,234,2959918,2645415,300487,537,31650,549546,41659,114893,4594,917.61,60.81,31.25,86.11,13.76
Bihar,Saharsa,25.821270696721303,86.54670819672135,214,1900661,1629254,266620,8,6009,317249,21651,41342,1668,906.05,42.35,34.19,87.63,12.3
Bihar,Samastipur,25.793205563909765,85.94833323308269,221,4261566,3800598,452370,112,1884,803128,46123,88021,5379,911.01,50.28,31.52,86.36,13.35
Bihar,Saran,25.89656077844312,84.82266287425155,219,3951862,3534772,406449,107,36786,474066,51822,94787,4509,953.64,54.59,26.32,85.1,14.81
Bihar,Sheikhpura,25.12472436548223,85.77839390862943,228,636342,596102,37653,31,617,131115,6803,20065,631,929.81,51.65,35.3,86.49,13.36
Bihar,Sheohar,26.458380748663107,85.29539411764709,205,656246,552492,99342,44,318,96655,3983,10004,478,892.98,43.23,32.97,85.51,14.23
Bihar,Sitamarhi,26.56570069686413,85.61172491289203,206,3423574,2672311,740101,20,2989,405714,39465,66263,3460,898.56,41.97,32.56,86.06,13.12
Bihar,Siwan,26.1736372013652,84.33766552901022,218,3330464,2712635,608282,86,87000,386685,42384,52935,3834,988.23,57.96,28.0,84.94,14.96
Bihar,Supaul,26.28157893772896,86.78496465201461,208,2229076,1809936,409251,42,10168,354249,12111,51028,1845,929.46,46.35,39.37,87.41,12.45
Bihar,Vaishali,25.8134703180212,85.39247597173153,220,3495021,3152346,333980,71,2274,738031,47300,70001,4810,894.8,55.13,30.34,84.0,13.91
Chandigarh,Chandigarh,30.7426,76.75872465753424,55,1055450,852574,51447,246,0,199086,168344,231204,44283,817.66,76.31,38.29,85.86,14.11
Chhattisgarh,Bastar,19.393866751269048,81.52895126903546,414,1413199,1277975,12413,86925,931780,37963,22075,157646,1782,1023.23,46.06,51.41,86.5,13.41
Chhattisgarh,Bilaspur,22.356942982456143,81.99770350877188,30,381956,371973,6984,7,10693,98989,17262,79146,1574,981.47,75.3,53.9,78.81,21.07
Chhattisgarh,Bilaspur,22.356942982456143,81.99770350877188,406,2663629,2540763,57973,29122,498469,552992,77727,519704,8566,970.76,59.94,45.17,85.62,14.27
Himachal Pradesh,Bilaspur,31.3780422907489,76.65316079295157,30,381956,371973,6984,7,10693,98989,17262,79146,1574,981.47,75.3,53.9,78.81,21.07
Himachal Pradesh,Bilaspur,31.3780422907489,76.65316079295157,406,2663629,2540763,57973,29122,498469,552992,77727,519704,8566,970.76,59.94,45.17,85.62,14.27
Chhattisgarh,Dhamtari,20.554912627291245,81.7569195519348,412,799781,777188,10425,3685,207633,58581,14568,148926,1016,1010.02,68.37,50.38,84.29,15.68
Chhattisgarh,Durg,21.194463849287164,81.33181639511197,409,3343872,3129745,83499,42569,397416,458040,129193,614109,16141,987.91,68.88,44.76,84.28,15.66
Chhattisgarh,Jashpur,22.77286167664669,83.8703962075848,402,851669,629509,15336,14835,530378,48844,6628,76783,567,1005.12,58.17,57.22,82.59,17.39
Chhattisgarh,Korba,22.491712499999995,82.57604326923074,404,1206640,1133176,30195,15649,493559,124679,43357,202380,4544,968.69,62.05,43.19,86.12,13.84
Chhattisgarh,Koriya,23.50412776859501,82.12515636363635,400,658917,604259,25878,15474,304280,54776,25605,80023,1667,968.46,60.38,46.6,85.69,14.28
Chhattisgarh,Mahasamund,21.223727037773354,82.65925427435384,411,1032754,1008061,12570,1417,279896,139581,13200,212487,961,1017.23,61.77,48.34,82.75,17.22
Chhattisgarh,Raigarh,22.008265068493166,83.27797698630134,403,1493984,1422986,17332,1782,505609,224942,27771,297308,3342,991.24,63.7,46.2,83.01,16.97
Chhattisgarh,Raigarh,22.008265068493166,83.27797698630134,520,2634200,2239370,227465,1159,305125,134952,328277,547206,38570,959.47,73.65,40.73,82.09,17.57
Maharashtra,Raigarh,18.453257637845976,73.0090609418579,403,1493984,1422986,17332,1782,505609,224942,27771,297308,3342,991.24,63.7,46.2,83.01,16.97
Maharashtra,Raigarh,18.453257637845976,73.0090609418579,520,2634200,2239370,227465,1159,305125,134952,328277,547206,38570,959.47,73.65,40.73,82.09,17.57
Chhattisgarh,Raipur,20.88603153846152,82.20032759615388,410,4063872,3881485,103038,10680,476446,724250,166505,728556,20261,984.13,64.71,43.25,85.94,13.78
Chhattisgarh,Surguja,23.32719278728607,83.23582493887531,401,2359886,2126195,81442,48295,1300628,115652,29433,253131,2737,977.9,50.34,48.98,84.89,15.05
Daman and Diu,Daman,20.431616666666677,72.8392366071429,495,191173,171537,16087,79,15240,4262,25844,49249,1316,533.57,78.64,55.2,91.78,8.07
Daman and Diu,Junagadh,20.72568199498111,70.83985639899612,479,2743082,2397056,334858,77,55571,265793,144561,498326,6628,953.27,67.18,40.97,83.01,16.83
Gujarat,Junagadh,20.929523011609785,70.54733890140345,479,2743082,2397056,334858,77,55571,265793,144561,498326,6628,953.27,67.18,40.97,83.01,16.83
Goa,North Goa,15.548723418714054,73.80667997909038,585,818008,622213,57941,166,56606,17606,132612,173951,23440,963.17,81.06,40.06,78.42,21.4
Goa,South Goa,15.195278658183785,73.941792596877,586,640537,341664,63623,92,92669,7843,102191,138810,17624,986.39,78.44,38.97,79.52,20.39
Gujarat,Ahmadabad,22.605425564971743,72.23898135593227,474,7214225,6042416,883238,2055,89138,759483,965017,1456046,126341,904.47,75.35,35.97,83.12,16.61
Gujarat,Amreli,21.04832649310872,71.43457637825426,480,1514190,1410463,99105,40,7322,132915,80378,273331,2538,963.81,65.74,43.4,80.98,18.65
Gujarat,Anand,22.282718206229863,72.57782051557454,482,2092745,1798794,250919,142,24824,104465,147122,378310,9902,924.85,74.13,40.37,82.19,17.51
Gujarat,Banas Kantha,24.258538965517253,71.93205252873561,469,3120506,2890305,213505,83,284155,327460,84832,396873,3424,937.75,54.64,40.01,87.27,12.65
Gujarat,Bharuch,21.75787276237761,72.67326346710801,488,1551019,1188204,343511,342,488194,62235,121542,309091,10257,925.04,72.1,40.43,82.97,16.42
Gujarat,Bhavnagar,21.70219390341736,72.16272632761141,481,2880365,2632574,212863,127,9110,157034,171327,500757,7297,932.87,65.52,39.95,84.34,15.45
Gujarat,Gandhinagar,23.193679790026252,72.67221679790026,473,1391753,1319586,57273,82,18204,108608,132683,262539,12107,922.67,74.04,38.44,83.43,16.16
Gujarat,Jamnagar,22.410600414263328,69.62062005768233,477,2160119,1810443,320805,136,24187,173895,142974,386538,11573,938.73,64.65,39.23,83.19,16.59
Gujarat,Kachchh,23.48057203301311,68.82192301497916,468,2092371,1608921,442355,98,24228,258859,140067,403294,9631,907.81,59.85,37.1,86.15,13.67
Gujarat,Kheda,22.88765312500002,73.018803515625,483,2299885,2000884,264482,82,40336,115631,99982,372226,5710,939.64,72.19,40.61,82.13,16.9
Gujarat,Mahesana,23.529355452865065,72.45545194085031,471,2035064,1885732,136431,88,9392,162288,180985,385609,7759,926.2,73.84,39.9,82.25,17.57
Gujarat,Narmada,21.70666386292833,73.68403208722742,487,590297,559848,22600,2078,481392,8733,12997,101940,576,960.56,62.74,49.94,83.81,15.83
Gujarat,Navsari,20.866973318871995,72.86184869848157,490,1329672,1225087,78669,2823,639659,35464,114620,267679,6726,960.69,75.35,44.51,79.97,19.48
Gujarat,Panch Mahals,22.80435606837605,73.61984598290586,484,2390776,2220974,158513,131,721604,100446,59096,398937,3456,948.53,60.27,45.91,84.57,15.2
Gujarat,Patan,23.80634198473284,71.75162977099237,470,1343734,1194745,142797,66,13303,123408,66310,223424,2231,935.11,62.36,41.29,83.93,15.89
Gujarat,Porbandar,21.55092351651571,69.71896987722886,478,585449,549749,33565,38,13039,51830,41686,117040,1653,950.14,67.24,39.49,81.76,18.04
Gujarat,Rajkot,22.40603377715488,70.83679439383323,476,3804558,3397406,361388,269,24017,290169,362140,747352,21785,926.9,71.63,38.88,82.36,17.34
Gujarat,Sabar Kantha,23.71803594548552,73.13638790459964,472,2428589,2260560,148563,52,542156,187685,99037,438606,5262,951.88,65.01,44.67,83.34,16.51
Gujarat,Surat,21.25761372772093,72.93488716344339,492,6081322,5260193,660772,3920,856952,158115,815423,1252452,55694,787.45,75.17,41.99,87.22,11.9
Gujarat,Surendranagar,22.82672007299272,71.48358740875906,475,1756268,1620282,109681,128,21453,179461,77857,302068,2975,930.14,62.27,41.2,83.86,15.98
Gujarat,The Dangs,20.801633877551023,73.6883518367347,489,228291,203545,3593,560,216073,992,2029,29794,137,1005.7,61.75,51.8,86.69,13.15
Gujarat,Vadodara,22.26133739279589,73.49433010291594,486,4165626,3713941,384579,1124,1149901,221629,411734,798277,53606,934.14,69.45,40.65,81.7,17.61
Gujarat,Valsad,20.44238231644259,72.9148584798345,491,1705678,1571147,94034,1417,902794,38237,137209,329218,11020,922.49,68.63,43.57,83.86,15.24
Haryana,Ambala,30.3503672316384,76.94970310734456,70,1128350,955096,22143,110,0,296246,121622,199681,12899,884.66,72.5,32.98,82.07,17.87
Haryana,Bhiwani,28.728868064516128,76.02110225806452,81,1634445,1611031,15515,26,0,341162,88938,266244,5292,885.89,65.46,38.12,83.86,15.99
Haryana,Faridabad,28.14873109756098,77.32718536585368,88,1809733,1588407,161680,249,0,223799,258422,333171,43437,873.22,70.33,32.01,87.14,12.77
Haryana,Fatehabad,29.57298318584072,75.54608716814157,78,942011,779243,8360,530,0,284357,51693,153301,3210,901.67,59.19,39.18,84.16,15.65
Haryana,Gurgaon,28.043894789579163,77.01935130260523,86,1514432,1408801,70842,254,0,197937,238359,305751,67087,854.35,73.37,35.97,86.08,13.89
Haryana,Hisar,29.23628731117825,75.84324682779452,80,1743931,1701061,21650,33,0,408785,110495,285004,10132,872.05,63.9,39.66,84.54,15.2
Haryana,Jhajjar,28.59651868131869,76.61137142857145,83,958405,945693,8247,22,0,170448,70149,168558,5034,862.18,70.54,34.07,82.96,16.94
Haryana,Jind,29.45149821958457,76.29598575667653,77,1334152,1276669,23016,56,0,282351,78386,222462,5263,871.17,62.42,39.23,83.93,16.0
Haryana,Kaithal,29.96068539094649,76.37698930041155,73,1074304,974520,8232,70,0,247513,62668,187349,3724,881.43,60.18,34.8,83.4,16.41
Haryana,Karnal,29.703200647249204,76.87488025889972,74,1505324,1341002,31650,49,0,339604,143133,267223,11163,887.05,64.97,34.28,84.06,15.59
Haryana,Kurukshetra,30.05652659846548,76.78774680306903,72,964655,805175,15970,106,0,215128,90150,171908,7356,887.87,67.06,34.91,83.23,16.61
Haryana,Mahendragarh,28.1352161458333,76.14018072916659,84,922088,913251,5660,15,0,156314,45359,135455,2624,894.71,68.35,36.72,82.36,17.49
Haryana,Panchkula,30.700897142857134,76.97173238095236,69,561293,490702,23451,90,0,101830,69687,103455,18615,872.98,72.21,37.68,83.05,16.68
Haryana,Panipat,29.34352134146342,76.92895914634147,75,1205437,1083936,86622,99,0,206213,121846,209965,10024,863.53,65.25,34.2,86.1,13.87
Haryana,Rewari,28.19164714828897,76.55956007604564,85,900332,889133,5713,12,0,182606,62667,152651,5121,898.09,70.75,37.51,83.24,16.72
Haryana,Rohtak,28.892517647058817,76.53123235294117,82,1061204,1043887,8185,24,0,216889,94633,193120,8482,866.74,70.45,32.6,82.46,17.5
Haryana,Sirsa,29.63583446327684,74.90970480225988,79,1295189,940255,9524,624,0,387381,70538,215527,6287,897.48,60.45,38.76,83.74,16.07
Himachal Pradesh,Chamba,32.66741814595661,76.39354063116366,23,519080,479782,32455,14,135500,111690,21458,96082,1615,986.38,62.39,56.65,84.22,15.71
Himachal Pradesh,Hamirpur,31.67668481012659,76.49767088607594,28,454768,449412,3711,9,3044,109256,34978,104120,2521,1095.03,78.74,53.2,76.52,23.45
Himachal Pradesh,Hamirpur,31.67668481012659,76.49767088607594,168,1104285,1010014,91269,273,474,241198,20175,55929,1196,860.52,59.16,40.18,83.42,16.4
Uttar Pradesh,Hamirpur,25.738158381502892,79.82619479768789,28,454768,449412,3711,9,3044,109256,34978,104120,2521,1095.03,78.74,53.2,76.52,23.45
Uttar Pradesh,Hamirpur,25.738158381502892,79.82619479768789,168,1104285,1010014,91269,273,474,241198,20175,55929,1196,860.52,59.16,40.18,83.42,16.4
Himachal Pradesh,Kangra,32.14093603238864,76.41205910931173,24,1510075,1461140,19797,208,84564,319385,148361,330081,8053,1011.85,76.33,44.71,78.52,21.15
Himachal Pradesh,Kinnaur,31.60667184065933,78.51613736263741,34,84121,64732,448,45,48746,14750,10740,17865,354,818.87,72.16,66.9,81.98,17.92
Himachal Pradesh,Kullu,31.90911922077925,77.40922649350647,26,437903,415669,2974,83,16822,122659,40064,91322,2623,942.33,70.26,61.45,83.41,16.51
Himachal Pradesh,Mandi,31.635805940594054,76.96556930693067,27,999777,981412,9460,86,12787,293739,59324,214491,5333,1007.32,72.39,57.28,80.38,19.47
Himachal Pradesh,Shimla,31.155725451807253,77.62573042168668,33,814010,791449,11810,197,8755,215777,108888,172754,9177,915.14,75.26,52.94,82.02,17.88
Himachal Pradesh,Sirmaur,30.682764453961443,77.43184689507493,32,529855,476830,33215,86,11262,160745,28904,91509,2220,917.76,68.44,52.86,84.38,15.56
Himachal Pradesh,Solan,31.03864311926604,76.94442140672783,31,580320,548579,14678,110,25645,164536,53722,119866,5250,879.55,73.85,51.48,84.21,15.65
Himachal Pradesh,Una,31.58330388349513,76.18353932038836,29,521173,480138,14275,10,8601,115491,43809,105929,2412,976.45,76.7,41.32,79.74,20.22
Jammu and Kashmir,Doda,33.359614675767915,76.07163720136518,16,409936,187621,220614,42,39216,53408,7963,61831,596,918.81,53.44,37.06,87.03,12.87
Jammu and Kashmir,Jammu,32.713199095022645,74.8477520361991,21,1529958,1289240,107489,321,69193,377991,197168,294739,19905,879.97,74.32,33.24,81.88,18.01
Jammu and Kashmir,Kargil,33.565994894894914,76.63675315315312,4,140802,10341,108239,4,122336,18,3285,15824,235,810.14,61.25,36.84,87.42,12.42
Jammu and Kashmir,Kathua,32.51781678321678,75.58901398601404,7,616435,540063,64234,2,53307,141224,32772,109422,1443,890.27,63.14,32.51,84.03,15.85
Jammu and Kashmir,Pulwama,33.88414418604652,75.00921860465118,12,560440,13840,535159,18,22607,402,16828,73629,1537,912.35,52.45,33.62,85.58,14.29
Jammu and Kashmir,Punch,33.791241290322574,74.29593161290322,5,476835,32604,431279,2,176101,556,13160,62900,346,892.96,54.89,33.85,86.99,12.86
Jammu and Kashmir,Srinagar,34.27312898550724,75.11021159420288,10,1236829,42540,1177342,2,8935,1068,138119,165403,16413,899.53,60.52,32.92,84.47,15.39
Jammu and Kashmir,Udhampur,33.04770670731707,75.15286951219511,19,554985,489044,59771,235,56309,138569,20008,73999,1214,870.0,58.08,43.91,86.48,13.47
Jharkhand,Bokaro,23.6814965034965,85.98398374125864,355,2062330,1636460,241451,160524,255626,299227,67157,274726,9754,922.37,61.75,33.23,85.9,13.68
Jharkhand,Chatra,24.11619945750453,84.93295804701627,347,1042886,903179,116710,12936,45563,340553,5307,27037,590,953.21,48.91,38.13,87.79,12.15
Jharkhand,Deoghar,24.33070100755672,86.75697632241814,350,1492073,1165140,302626,16067,180962,190036,26760,130193,1944,925.2,53.18,36.96,86.01,13.77
Jharkhand,Dhanbad,23.854509090909097,86.40372924901185,354,2684487,2149480,431762,77182,233119,437309,83995,427173,11568,909.37,64.15,31.46,85.07,13.28
Jharkhand,Dumka,24.275006125574265,87.27662450229711,362,1321442,1044726,106865,78622,571077,79614,11836,62110,1193,976.69,50.88,47.28,85.02,14.84
Jharkhand,Garhwa,24.082114689265527,83.68664265536722,346,1322784,1104475,194680,4591,205874,319946,6798,29373,565,935.1,49.4,43.2,86.55,13.43
Jharkhand,Giridih,24.30578509874329,86.08710915619386,349,2445474,1856202,508586,59218,238188,325493,16909,125431,1944,943.79,51.26,42.38,87.14,12.8
Jharkhand,Godda,24.8189,87.2941735483871,351,1313551,937126,289182,47067,279208,115567,7421,43230,874,937.6,46.02,42.04,85.95,13.97
Jharkhand,Gumla,23.078532948929148,84.55056787479396,366,1025213,309563,51429,457468,706754,32459,9108,31687,831,993.07,54.6,47.55,84.81,15.16
Jharkhand,Jamtara,23.97873318077801,86.95325080091534,363,791042,550560,164406,68564,240489,72885,5564,49419,808,954.01,53.89,41.29,84.8,14.77
Jharkhand,Latehar,23.72511185840708,84.48298743362837,359,726978,473049,69808,133525,331096,154910,2177,38194,340,966.58,48.24,43.11,87.6,12.36
Jharkhand,Lohardaga,23.488796043165483,84.6605169064748,356,461790,112378,95012,235987,262734,15330,8016,28769,351,985.09,56.24,47.93,86.44,13.48
Jharkhand,Pakur,24.57260428082189,87.69691969178076,353,900422,410127,322963,88760,379054,28469,5316,31414,328,989.18,39.19,44.93,88.27,11.6
Jharkhand,Palamu,24.196925968109337,84.20310842824594,358,1939869,1683169,238295,5681,181208,536382,17270,68238,2155,927.72,52.82,36.76,86.1,13.84
Jharkhand,Ranchi,23.184235061391547,85.31781937244203,364,2914253,1612239,410759,677445,1042016,152943,164237,350908,22538,949.42,65.59,39.22,84.7,14.04
Jharkhand,Sahibganj,24.93667989690721,87.68264097938142,352,1150567,628044,398243,38426,308343,72341,11545,34879,591,952.13,42.0,42.61,87.51,11.97
Jharkhand,Simdega,22.608760391198054,84.59193691931536,367,599578,201524,15103,73930,424407,44674,3472,16865,423,996.54,57.29,48.14,83.63,16.31
Karnataka,Bagalkot,16.15860676328503,75.64526070853468,556,1889752,1634229,219991,166,97203,319149,49345,301389,3745,988.98,58.92,43.29,84.09,15.86
Karnataka,Bangalore Rural,12.936827087794448,77.47369314775169,583,990923,890429,92252,85,52903,213700,77454,214253,3729,946.15,69.51,46.41,82.14,17.77
Karnataka,Belgaum,16.16107219152853,74.72329042357275,555,4779661,4038331,528412,149,297198,577418,240742,808827,17560,972.57,63.85,44.05,82.02,17.93
Karnataka,Bellary,15.074377548209377,76.47228471074374,565,2452595,2103633,320834,54,451406,517409,114040,440374,9626,982.77,57.96,45.54,85.8,14.14
Karnataka,Bidar,17.950361730769224,77.19459961538459,558,1703300,1289709,335184,521,235822,399785,34924,271439,3971,956.32,61.21,41.25,83.09,16.87
Karnataka,Bijapur,16.84015316666667,75.95909166666665,417,255230,245151,1617,3793,204189,10122,1022,12516,117,983.71,34.06,52.71,90.57,9.37
Karnataka,Bijapur,16.84015316666667,75.95909166666665,557,2177331,1786830,369588,499,39314,442773,58890,326594,4987,959.76,57.33,42.61,83.7,16.24
Karnataka,Chikmagalur,13.425288289676422,75.67626502311249,570,1137961,1004553,101235,4,44970,253651,74534,238505,4510,1008.32,71.91,49.72,79.65,20.29
Karnataka,Chitradurga,14.29102220394736,76.57821957236843,566,1659456,1520553,128751,128,302554,389117,60522,307257,5711,973.56,65.53,51.62,81.43,18.46
Karnataka,Davanagere,14.330414586709884,75.91723841166937,567,1945497,1658465,265805,1743,233112,392595,100812,372671,7320,972.32,67.26,44.99,82.6,17.28
Karnataka,Dharwad,15.343831376975173,75.13831264108359,562,1847023,1390020,386834,2748,87548,177855,140584,347962,15013,970.78,70.47,42.49,82.49,17.46
Karnataka,Gadag,15.507128256880746,75.64861302752298,561,1064570,907750,143665,74,61654,174196,31959,198064,3373,981.9,65.77,46.57,82.72,17.23
Karnataka,Gulbarga,17.070459515951594,76.87503850385033,579,2566326,2011014,513125,330,65259,648782,77334,404767,9752,971.44,55.62,42.36,84.77,15.16
Karnataka,Hassan,12.945098749999998,76.11049549999997,574,1776421,1630814,120011,3,32329,345031,90599,400702,4851,1010.28,68.97,50.87,78.78,21.16
Karnataka,Haveri,14.737582809224318,75.3961230607966,564,1597668,1281878,297927,702,141380,219976,41517,295937,2456,950.45,67.94,45.7,83.28,16.69
Karnataka,Kodagu,12.39684468085106,75.79336595744688,576,554519,448986,87274,220,58054,73584,40958,113931,3308,1019.31,74.46,50.3,79.4,20.54
Karnataka,Kolar,13.312799881235172,78.01376947743476,581,1536401,1305431,199873,92,78875,465867,72407,309494,5051,978.89,66.14,46.72,82.07,17.85
Karnataka,Koppal,15.651253271028034,76.1617048598131,560,1389920,1218024,161770,461,164271,258608,31673,223166,2135,985.81,58.21,47.11,85.32,14.6
Karnataka,Mandya,12.574901806239744,76.81570098522172,573,1805769,1712695,77801,109,22402,265294,80452,391033,3367,995.14,63.67,48.26,79.17,20.77
Karnataka,Mysore,12.248100259403367,76.52881802853437,577,3001127,2631985,290549,493,334547,536643,273706,640868,28397,985.4,65.38,43.79,81.48,18.45
Karnataka,Raichur,16.050795353982295,76.87368606194688,559,1928812,1634062,272022,29,367071,400933,51443,314547,5200,999.78,50.8,46.84,86.16,13.78
Karnataka,Shimoga,14.063845885634592,75.17882078103197,568,1752753,1479424,234664,367,65412,308158,128087,363835,8791,997.63,72.06,44.54,81.38,18.57
Karnataka,Tumkur,13.592467760074973,77.02297966260545,571,2678980,2413812,245923,161,209559,506901,116539,562769,7971,983.56,67.69,50.57,78.85,21.06
Karnataka,Udupi,13.450404228534568,74.72009990316337,569,1177361,1009179,96740,155,52897,75429,83810,224814,9070,1094.46,78.69,43.59,76.48,23.46
Kerala,Alappuzha,9.542602965599087,76.38010796263319,598,2127789,1460447,224545,311,6574,201211,274392,507913,28842,1100.19,87.08,37.81,72.38,27.52
Kerala,Ernakulam,10.004879301987431,76.26957729035381,595,3282388,1509557,514397,1083,16559,268411,499291,771287,88737,1026.72,87.0,38.06,73.78,26.14
Kerala,Idukki,9.80480963855423,77.04586641566264,596,1108974,541854,82206,384,55815,145486,54626,244844,8250,1006.07,83.23,46.56,76.34,23.58
Kerala,Kannur,11.941523076923056,75.35209891725934,589,2523003,1509592,742483,722,41371,83350,115356,511167,32653,1135.52,84.76,32.66,76.46,23.31
Kerala,Kasaragod,12.33310309912974,75.07768497134369,588,1307375,729987,486913,152,48857,53283,74092,237670,10378,1079.78,79.36,35.41,80.97,18.89
Kerala,Kollam,8.929388820570157,76.6360775852431,600,2635375,1697635,508500,619,10761,328263,263148,630767,31542,1113.43,85.01,34.61,74.85,25.08
Kerala,Kottayam,9.643701174068417,76.46059673302705,597,1974551,983598,126499,565,21972,153909,187213,464039,37849,1039.22,88.62,37.26,71.31,28.62
Kerala,Kozhikode,11.392924270557026,75.71158720159153,591,3086293,1734958,1211131,588,15228,199191,145558,641660,36791,1098.17,84.74,30.75,77.67,22.23
Kerala,Malappuram,10.97329875666072,75.93910775606876,592,4112920,1135259,2888849,579,22990,308266,139994,730119,27909,1098.08,80.51,25.83,83.82,16.1
Kerala,Palakkad,10.784926903553291,76.49980490693744,593,2809934,1875980,812936,400,48972,403833,178386,587583,27162,1066.92,79.7,37.09,78.22,21.67
Kerala,Thiruvananthapuram,8.537101759082221,76.88711502868073,601,3301427,2194057,452915,1082,26759,372977,343590,783872,71621,1087.29,84.37,37.31,75.05,24.84
Kerala,Thrissur,10.458932647907687,76.12321940836945,594,3121200,1823442,532839,585,9430,324350,338350,721625,56148,1107.83,85.82,35.11,74.52,25.38
Kerala,Wayanad,11.715277464788736,76.07587007042254,590,817420,404460,234185,286,151443,32578,23028,149864,4712,1034.98,78.98,41.6,80.67,19.25
Madhya Pradesh,Anuppur,23.18184220430107,81.86560000000007,461,749237,686524,21473,35434,358543,74385,23388,81338,1290,976.28,58.27,46.24,85.22,14.66
Madhya Pradesh,Ashoknagar,24.63098846153845,77.82974493927134,459,845071,778214,40707,27,82072,175764,15886,84720,619,904.01,55.51,37.31,86.4,13.51
Madhya Pradesh,Balaghat,21.80020720640569,80.42170053380796,457,1701698,1519384,38542,58064,383026,125426,27283,277927,1712,1020.59,67.44,52.48,83.64,16.27
Madhya Pradesh,Barwani,21.702135714285724,74.91004719710673,441,1385881,1318869,58222,263,962145,87991,30115,181139,1158,981.7,39.68,47.18,88.5,11.44
Madhya Pradesh,Betul,21.964626315789477,77.7873428189117,447,1575362,1505745,37590,13048,667018,159296,45270,230974,2109,971.08,59.65,49.96,84.52,15.4
Madhya Pradesh,Bhind,26.35951126187245,78.7618324287653,420,1703005,1595400,66776,73,6131,374799,32268,107819,1166,837.43,64.29,30.58,84.58,15.18
Madhya Pradesh,Bhopal,23.480726143790854,77.39246623093679,444,2371061,1755861,525434,335,69429,357516,281442,452912,40788,918.13,70.04,36.59,85.68,13.93
Madhya Pradesh,Burhanpur,21.364567254408065,76.24460478589425,467,757847,552526,180840,99,230095,64254,40478,112420,986,950.68,53.93,43.33,85.96,13.99
Madhya Pradesh,Chhatarpur,24.813637376460004,79.56449299191374,425,1762375,1676918,70351,102,73597,405313,36506,176056,1880,882.64,53.51,42.66,85.49,14.32
Madhya Pradesh,Chhindwara,22.227966971713823,78.76413136439254,455,2090922,1923920,100692,25771,769778,232244,73284,344875,3588,964.29,61.9,45.82,84.54,15.4
Madhya Pradesh,Damoh,23.76624407960196,79.47049303482588,428,1264219,1186420,47966,82,166295,246337,23270,187731,1432,910.06,59.14,45.45,85.55,14.35
Madhya Pradesh,Datia,25.90226439560441,78.63916571428574,422,786754,747693,28483,10,15061,200270,17555,97696,616,872.52,62.46,40.82,84.93,15.02
Madhya Pradesh,Dewas,22.7851110021322,76.46088805970157,437,1563715,1376591,174259,72,272701,292007,59521,270457,3518,941.64,59.18,47.49,85.22,14.73
Madhya Pradesh,Dhar,22.572681718963157,75.1105620736698,438,2185793,2051219,116202,88,1222814,145436,75637,349639,2388,964.36,49.29,47.03,87.41,12.49
Madhya Pradesh,Dindori,22.83738437047757,81.04332966714911,453,704524,605435,6736,84006,455789,39782,4576,62372,554,1001.98,53.75,55.35,85.36,14.55
Madhya Pradesh,Guna,24.49043927178156,77.2235895968791,458,1241519,1172248,49203,52,190819,193115,34184,144248,2482,911.91,52.68,41.47,86.86,13.06
Madhya Pradesh,Gwalior,26.04074441964285,78.12782433035713,421,2032036,1835299,141735,217,72133,393068,165061,306859,15779,863.69,66.79,33.73,85.53,14.34
Madhya Pradesh,Harda,22.227659781121783,77.07022571819435,448,570465,527462,38640,55,159678,92865,22174,95066,986,934.84,61.8,40.49,85.31,14.62
Madhya Pradesh,Hoshangabad,22.595268801996703,78.02168094841929,449,1241350,1175203,52269,107,197300,205007,61415,198076,2871,913.52,65.3,38.51,84.5,15.43
Madhya Pradesh,Indore,22.680265752128648,75.9133801324502,439,3276697,2728225,415142,720,217679,545239,417170,593576,48691,927.89,70.47,38.7,84.59,15.05
Madhya Pradesh,Jabalpur,23.18525572327043,79.98328754716981,451,2463289,2159065,203652,21010,375231,348029,192581,452023,20443,928.55,71.31,40.82,83.89,15.91
Madhya Pradesh,Jhabua,22.419578015397768,74.40921616766468,464,1025048,960925,15733,388,891818,17427,16683,125411,744,990.3,34.35,50.25,88.29,11.68
Madhya Pradesh,Katni,23.724416229116937,80.33819665871127,450,1292042,1240650,37232,2643,317699,155717,38086,172416,2179,951.69,61.2,42.09,85.52,14.38
Madhya Pradesh,Mandla,22.70348712446353,80.38600543633753,454,1054905,849518,16558,170533,610528,48425,18413,143803,912,1008.3,57.35,53.05,84.69,15.22
Madhya Pradesh,Mandsaur,24.19278764044944,75.43588667736759,433,1340411,1192588,125548,77,33092,249024,47723,239885,2324,962.96,62.26,50.71,84.14,15.8
Madhya Pradesh,Morena,26.37313504531724,77.88447341389724,419,1965970,1875495,76159,92,17030,421519,45113,131486,1781,840.08,60.01,34.38,86.82,13.11
Madhya Pradesh,Neemuch,24.70311893333336,75.06608186666664,432,826067,741288,67324,115,71441,111162,34666,145258,1945,954.48,61.6,50.68,84.06,15.89
Madhya Pradesh,Panna,24.451325840092657,80.21133001158752,426,1016520,974748,35214,218,170879,207990,13285,76097,653,905.45,54.36,42.5,85.62,14.25
Madhya Pradesh,Raisen,23.292518206521724,78.16305495923909,446,1331597,1195235,120331,190,205006,225891,34499,194373,1141,901.31,61.6,38.89,86.31,13.63
Madhya Pradesh,Rajgarh,23.785499026425583,76.66431223922116,442,1545814,1433879,106928,50,53751,295718,30688,231130,1611,956.2,52.03,48.23,84.0,15.94
Madhya Pradesh,Ratlam,23.503562290502792,75.14895782122909,434,1455069,1267043,151071,123,409865,198612,67830,213825,3644,970.99,56.76,47.49,85.27,14.68
Madhya Pradesh,Rewa,24.861184625158856,81.57572465057183,430,2365106,2268838,85414,232,311985,383508,45180,251132,3406,930.54,60.96,41.94,84.58,15.32
Madhya Pradesh,Sagar,23.800318709677374,78.71940357771273,427,2378458,2198297,103480,168,221936,501630,68482,366494,4546,893.29,64.99,42.3,85.76,14.1
Madhya Pradesh,Satna,24.62777621776502,80.75547048710598,429,2228935,2158623,59471,1689,319975,398569,55196,294702,3754,925.65,61.54,40.89,85.28,14.63
Madhya Pradesh,Sehore,22.9297199679658,77.06780202883085,445,1311332,1163607,137980,66,145512,271281,30868,212138,1566,917.87,59.51,44.69,85.65,14.31
Madhya Pradesh,Seoni,22.33230487804874,79.66053863928111,456,1379131,1145052,79739,135315,519856,130797,26893,228695,1182,981.85,62.66,49.63,85.05,14.88
Madhya Pradesh,Shahdol,23.44859864559819,81.4596831828442,460,1066063,997073,42426,19448,476008,89733,24255,113184,1733,974.11,56.68,46.25,85.81,14.13
Madhya Pradesh,Shajapur,23.566620317220547,76.33555181268885,436,1512681,1321003,174724,66,37836,353914,32204,232735,1382,938.04,59.14,47.46,84.02,15.92
Madhya Pradesh,Sheopur,25.78014810996563,77.16911116838484,418,687861,638702,41396,40,161448,108391,11701,74770,273,901.3,47.69,40.34,87.96,11.98
Madhya Pradesh,Shivpuri,25.37802451874367,77.74861600810549,423,1726050,1648749,51200,72,227802,321515,35706,148128,1852,876.56,52.19,43.99,86.66,13.21
Madhya Pradesh,Sidhi,24.17547189952905,82.1053783359498,462,1127033,1077545,34419,12556,313304,130202,9569,102228,837,956.95,53.31,40.97,86.53,13.39
Madhya Pradesh,Tikamgarh,25.14099852104666,78.89357064846428,424,1445166,1383475,44143,39,67857,361604,21489,132725,1090,900.65,51.75,45.35,85.95,13.97
Madhya Pradesh,Ujjain,23.319288862745065,75.80383717647058,435,1986864,1718204,233133,211,48730,523869,123526,323379,7501,955.02,62.46,45.17,83.8,16.13
Madhya Pradesh,Umaria,23.59601063063061,80.90879477477475,431,644758,620515,15966,6028,300687,58147,12713,67975,839,949.83,55.32,44.93,87.04,12.87
Madhya Pradesh,Vidisha,23.82838307984792,77.9013507604563,443,1458875,1287391,149548,70,67603,292144,41617,181510,1926,895.71,59.15,37.73,86.02,13.92
Maharashtra,Akola,20.746310479041902,77.12122320359276,501,1813906,1107809,357253,389,100280,364059,107463,314490,6163,945.55,77.8,42.35,81.7,18.08
Maharashtra,Amravati,21.16520991810736,77.67583503184723,503,2888445,2055177,421410,3288,404128,506374,175917,512492,9438,950.64,77.96,42.8,80.46,19.15
Maharashtra,Bhandara,21.211792649727748,80.10950199637024,506,1200334,1009352,26502,3555,88886,200372,55948,227025,2932,982.32,74.97,49.76,79.99,19.39
Maharashtra,Bid,18.952353340080982,75.69319706477731,523,2585049,2174672,320395,399,32722,351254,82098,402052,5614,916.12,66.48,48.57,80.79,19.13
Maharashtra,Buldana,20.56680611183355,76.39017880364096,500,2586258,1845424,354236,522,124837,470895,103898,423036,4767,933.56,72.69,47.16,81.56,18.29
Maharashtra,Chandrapur,20.095609090909075,79.31556380471388,509,2204307,1780085,92297,23188,389441,348365,172661,418666,8239,961.42,71.62,48.0,81.37,18.32
Maharashtra,Dhule,21.274018690400517,74.58719071837263,498,2050862,1825460,187901,912,647315,127571,126138,315332,6065,945.73,63.09,45.66,81.99,17.1
Maharashtra,Gondiya,21.225008411214997,80.17522698598128,507,1322507,1153861,26157,5080,214253,175961,38044,239981,2866,999.09,75.93,50.31,81.37,18.46
Maharashtra,Hingoli,19.59525302245251,77.09239412780653,512,1177345,863199,127552,103,111954,182565,27700,159114,1221,941.87,67.16,48.34,82.73,17.14
Maharashtra,Jalgaon,20.8828943415638,75.55140421810695,499,4229917,3457615,560261,9662,604367,389273,350029,720791,14297,925.0,68.37,44.06,81.16,18.05
Maharashtra,Jalna,19.984612534818933,75.98473607242339,514,1959046,1504641,274221,336,42263,272266,60219,288895,3791,936.82,61.03,47.52,81.92,17.43
Maharashtra,Kolhapur,16.44881301587301,74.12897150793648,530,3876001,3379906,286558,1274,30206,504461,340318,770005,22269,956.93,72.91,43.96,78.88,20.68
Maharashtra,Latur,18.348687268993856,76.75812607802874,524,2454196,2006984,367664,310,57488,480913,96018,381722,6217,927.67,67.26,42.66,81.11,18.47
Maharashtra,Nagpur,21.196556862745105,79.02166176470584,505,4653570,3492202,390974,12181,437571,867713,599780,917626,57964,951.2,78.95,40.15,82.14,17.59
Maharashtra,Nanded,19.209316983017,77.6829048951049,511,3361292,2501741,471951,1273,281695,640483,116284,488748,7548,942.86,65.14,44.45,83.82,15.94
Maharashtra,Nandurbar,21.523175625248147,74.32638757443429,497,1648295,1521618,96182,2907,1141933,47985,54335,186202,2579,978.34,55.0,48.05,85.04,14.65
Maharashtra,Nashik,20.266912871287143,74.03824168316828,516,6107187,5237009,693052,1795,1564369,554687,536781,904710,45039,934.38,71.15,45.25,84.29,15.53
Maharashtra,Osmanabad,18.19459456066944,75.99495575313809,525,1657576,1437623,178925,195,36039,265184,49180,240042,3209,923.98,68.64,46.69,79.08,20.69
Maharashtra,Parbhani,19.31032425249168,76.70163338870431,513,1836086,1328385,306364,262,40514,247308,59272,272486,3982,947.34,63.06,44.81,82.5,17.07
Maharashtra,Pune,18.51696171428573,74.12922881632647,521,9429408,8090254,673704,9873,348876,1180703,1410448,1925019,235018,914.95,76.06,42.94,82.81,16.82
Maharashtra,Ratnagiri,17.210195070127703,73.25725893866404,528,1615069,1307211,187197,95,20374,66948,100860,367352,7752,1121.96,74.26,44.21,75.31,24.58
Maharashtra,Sangli,17.154930181086502,74.70713822937628,531,2822143,2440312,239607,769,18333,353093,227034,485126,13212,965.65,72.62,43.06,78.07,21.39
Maharashtra,Satara,17.6737908974359,74.18052064102558,527,3003741,2691952,146970,676,29635,323236,271186,562653,14093,988.12,74.1,45.11,77.16,22.36
Maharashtra,Sindhudurg,16.170948049777163,73.51329008172343,529,849651,780384,26264,53,6976,55586,42540,194228,3517,1035.91,78.39,40.86,73.48,26.24
Maharashtra,Solapur,17.837357937584812,75.42394823609216,526,4317756,3795424,441254,568,77592,649745,248255,595560,15145,938.08,67.41,43.97,80.89,18.76
Maharashtra,Thane,19.698767747440264,72.79882742564581,517,11060148,8716055,1355630,9862,1542451,730089,1610460,2231800,256170,885.76,74.39,40.62,85.23,14.28
Maharashtra,Wardha,20.80743024390242,78.57259105691062,504,1300774,1057096,53854,2254,149507,188830,114029,266155,4313,946.14,78.37,46.76,79.17,20.77
Maharashtra,Washim,20.282282394366213,77.25502394366208,502,1197160,859949,142672,381,80471,229462,36840,196022,1875,929.96,72.67,47.6,82.31,17.56
Maharashtra,Yavatmal,20.04258346738159,78.05326371760479,510,2772348,2251401,239236,3745,514057,328518,134500,446516,6094,952.41,72.96,48.91,82.33,17.45
Manipur,Bishnupur,24.50712111801243,93.8246236024845,275,237399,175102,18691,38457,3287,22113,11393,34364,676,998.61,65.85,46.31,83.46,16.35
Manipur,Chandel,24.2635812987013,94.09443844155844,280,144182,10810,3086,354,128280,540,1424,18764,184,933.28,62.63,52.88,87.1,12.71
Manipur,Churachandpur,24.30309718875504,93.38671506024085,274,274143,12034,2886,2333,254787,443,13371,29894,837,974.81,71.47,44.74,86.24,13.53
Manipur,Senapati,25.08465586034914,94.03366234413956,272,479148,43833,1649,1243,419210,1000,2430,22798,256,937.34,55.2,48.76,88.9,10.85
Manipur,Tamenglong,24.98312942238265,93.49450740072204,273,140651,2995,589,1144,134626,22,1229,11541,125,943.47,60.44,50.25,87.85,12.03
Manipur,Thoubal,24.545392553191498,93.97959893617023,276,422168,267146,107323,42347,1808,40593,15994,49507,880,1002.27,63.79,46.27,85.08,14.7
Manipur,Ukhrul,25.05900314960629,94.44129566929138,279,183998,7553,1115,32,173606,248,1659,14026,276,942.59,70.56,47.79,85.52,13.68
Meghalaya,East Garo Hills,25.82728228228228,90.64684924924916,294,317917,17272,3359,5617,305180,509,1839,24550,288,971.91,60.44,39.66,90.33,9.41
Meghalaya,East Khasi Hills,25.303763888888884,91.75922519841272,298,825922,144935,14185,115597,661158,5642,41496,135941,5032,1010.77,69.99,39.57,89.4,10.48
Meghalaya,Jaintia Hills,25.33959557069844,92.37608160136298,299,395124,12456,1646,107559,376099,1317,7150,41677,510,1013.01,47.46,39.02,92.13,7.68
Meghalaya,South Garo Hills,25.240568578553614,90.64560349127176,295,142334,7036,1050,362,134237,319,482,10940,179,945.25,57.65,37.28,89.71,10.18
Meghalaya,West Garo Hills,25.495285185185185,90.03709947089942,293,643291,122936,106788,16950,474009,8810,10006,51301,1630,984.49,55.76,39.75,88.8,10.97
Meghalaya,West Khasi Hills,25.500889926739926,91.25364542124538,296,383461,6498,1533,5878,375097,168,476,32873,149,979.51,60.16,42.6,90.9,8.72
Mizoram,Aizawl,23.90781335453101,92.85359459459472,283,400309,13249,5264,505,373542,627,64710,79804,4019,1008.88,85.08,43.63,85.93,14.01
Mizoram,Champhai,23.54166580976866,93.24221799485862,284,125745,1075,699,194,123466,17,9115,23948,186,983.74,80.16,47.99,86.26,13.67
Mizoram,Kolasib,24.2020004347826,92.73470391304348,282,83955,4000,4426,46,73609,84,8787,14853,367,956.17,78.49,43.68,86.62,13.3
Mizoram,Lawngtlai,22.36102843137253,92.66964156862753,287,117894,1668,522,2,112354,146,5213,9283,162,945.48,53.32,38.65,89.93,10.04
Mizoram,Lunglei,23.007717036172675,92.63512555425892,286,161428,5231,1290,5,153533,178,14037,26394,482,947.47,75.03,48.5,86.69,13.27
Mizoram,Mamit,23.73852942502819,92.4330803833147,281,86364,2989,1782,19,82080,51,4010,12158,90,926.56,69.69,45.55,87.99,11.95
Mizoram,Saiha,22.35744801061008,93.02827931034489,288,56574,933,514,2,54642,83,4783,7400,168,978.53,74.65,34.4,88.22,11.73
Mizoram,Serchhip,23.263864705882344,92.914158496732,285,64937,991,335,35,62889,32,5511,12315,131,976.71,83.89,49.89,85.41,14.48
Nagaland,Dimapur,25.814176811594223,93.75074057971014,265,378811,108900,31212,157,223989,0,42378,71413,3303,919.06,73.4,39.95,90.28,9.67
Nagaland,Kohima,25.60311428571428,93.78600657596373,270,267988,25496,4384,335,224738,0,20712,50724,1928,928.44,73.69,42.85,90.37,9.54
Nagaland,Mokokchung,26.478911764705888,94.522426006192,262,194622,9840,2057,6,178431,0,7236,40154,537,925.2,81.95,51.42,84.32,15.6
Nagaland,Mon,26.69207374301676,95.03072988826828,261,250260,8102,3444,1,238285,0,1080,14398,178,899.46,47.8,59.0,88.86,10.96
Nagaland,Phek,25.63272986577182,94.56814563758392,266,163418,3563,950,198,157146,0,2073,36182,170,951.42,64.8,49.12,89.56,10.38
Nagaland,Tuensang,26.21104453280316,94.85809880715708,267,196596,2979,1052,1,190916,0,773,24998,155,928.68,59.77,49.93,90.43,9.54
Nagaland,Wokha,26.202611551155112,94.1990815181518,264,166343,5605,2043,20,156621,0,3228,25268,198,968.44,77.07,47.14,88.65,11.31
Nagaland,Zunheboto,26.028178205128206,94.50026666666668,263,140757,2580,772,2,136561,0,1433,28846,261,976.45,73.09,56.46,88.08,11.89
Orissa,Baleshwar,21.48570932311624,87.08085828011933,377,2320529,2197709,94254,18345,275678,478586,36478,296834,7370,956.95,69.86,40.19,83.02,16.83
Orissa,Bhadrak,20.95262735257214,86.81496204516931,378,1506337,1398543,104202,61,30428,334896,15864,164636,2637,981.34,72.64,31.11,82.47,17.29
Orissa,Cuttack,20.407640646029623,85.7776810228802,381,2624470,2457729,141263,168,93745,498633,103177,349587,15046,940.09,76.64,35.68,80.6,19.05
Orissa,Dhenkanal,20.79887159353349,85.53226836027711,383,1192811,1185542,4805,139,162056,234079,19846,117172,1810,947.15,69.58,36.51,81.15,18.64
Orissa,Gajapati,19.121080882352945,84.14015091911759,389,577817,353160,1556,4,313714,39175,12035,63112,635,1042.61,45.44,50.87,84.7,14.72
Orissa,Ganjam,19.2632617564534,84.80297710437702,388,3529031,3486059,13315,76,118928,688235,120191,405298,9049,983.47,62.62,42.55,82.32,17.38
Orissa,Jharsuguda,21.827058566978184,83.93581682242987,371,579505,553587,12783,67,176758,104620,18950,81433,2498,953.23,70.04,42.74,82.77,17.01
Orissa,Kalahandi,19.784253092783523,83.1124043814433,395,1576869,1555367,4975,220,449456,286580,17610,91171,1953,1003.39,50.86,47.69,82.18,17.47
Orissa,Kandhamal,20.092878624813142,84.02216352765326,390,733110,580300,2138,23,392820,115544,6938,28736,768,1036.73,54.53,48.47,83.77,16.07
Orissa,Kendrapara,20.606319815982264,86.83763247572003,379,1440361,1386792,50247,24,9484,309780,15879,173107,1628,1006.59,75.62,32.41,79.55,20.2
Orissa,Khordha,20.054162322274863,85.52234834123229,386,2251673,2147632,84060,434,115051,297472,160277,349860,35701,929.23,77.72,35.18,82.29,17.4
Orissa,Koraput,18.82627794779476,82.81278469846964,398,1379647,1294151,8850,3384,697583,196540,39631,85766,3988,1032.45,41.18,50.26,84.61,15.02
Orissa,Malkangiri,18.25227930367506,81.98293636363628,399,613192,600219,1871,35,354614,138295,4738,24604,448,1019.58,39.91,50.66,86.15,13.58
Orissa,Mayurbhanj,21.897621545157754,86.4030408052231,376,2519738,2113079,33706,351714,1479576,184682,29031,140189,2950,1005.82,54.35,48.56,83.34,16.43
Orissa,Nayagarh,20.192895622119817,85.05614700460825,385,962789,955754,5278,12,58691,136399,11159,124984,1163,915.48,71.5,35.69,79.38,20.46
Orissa,Nuapada,20.471309512195116,82.59152536585364,394,610382,601092,4952,22,206327,82159,6414,43976,757,1021.39,49.05,50.04,81.38,18.4
Orissa,Puri,19.83509174603177,85.86698989898981,387,1698730,1644905,46094,302,6129,325133,33331,201605,3416,962.99,76.05,36.6,80.39,19.35
Orissa,Rayagada,19.292840020060204,83.45860120361095,396,967911,874445,4607,44,541905,139514,24924,61543,1553,1050.83,42.13,48.26,85.06,14.55
Orissa,Sambalpur,21.515752380952385,84.34958483245157,372,1041099,964188,20120,1117,355261,191827,33612,126498,5231,975.98,67.59,48.59,81.86,17.94
Orissa,Sundargarh,22.06354819277107,84.50524819277099,374,2093437,1532352,71391,89986,1062349,191660,77581,223537,12787,972.81,64.12,41.71,84.18,15.5
Puducherry,Karaikal,10.876161726078813,79.82369793621002,637,200222,152638,28835,14,0,35348,28366,47880,1868,1047.07,77.37,34.11,81.12,18.7
Puducherry,Mahe,12.006420793787758,75.28275021570326,636,41816,27940,12856,3,0,144,3632,7150,574,1184.4,87.22,28.22,77.25,22.55
Puducherry,Yanam,16.707695652173904,82.26187304347832,634,55626,53537,1191,4,0,8427,10399,12859,207,1037.51,70.6,30.13,84.87,15.1
Punjab,Amritsar,31.548679820627772,74.79883856502238,49,2490656,690939,12502,1044,0,770864,279993,461231,29961,889.14,67.64,36.85,82.4,17.53
Punjab,Bathinda,30.190524611973352,75.05685898004438,46,1388525,380569,16299,559,0,450473,118427,255650,11284,868.31,60.85,39.61,81.57,18.39
Punjab,Faridkot,30.591187250996025,74.79751553784862,45,617508,141363,3125,103,0,240328,62103,113549,4348,890.31,61.75,35.88,81.21,18.42
Punjab,Fatehgarh Sahib,30.64290947368421,76.36208394736842,40,600163,152851,16808,251,0,192493,64037,113683,5138,870.86,70.99,35.79,81.28,18.5
Punjab,Firozpur,30.63407535211269,74.40245732394365,43,2029074,906408,6844,278,0,855726,141899,349662,10042,893.43,60.5,37.29,83.65,16.33
Punjab,Gurdaspur,32.04283371212125,75.3204064393939,35,2298323,1074332,27667,812,0,580576,244468,411216,14428,895.34,71.13,32.94,81.48,18.42
Punjab,Hoshiarpur,31.55157169811319,75.8469857442349,38,1586625,1000743,23089,531,0,557504,201675,319930,13747,961.08,75.61,31.5,79.07,20.84
Punjab,Jalandhar,31.250336907216507,75.54400350515463,37,2193590,1394329,30233,805,0,854444,299449,446200,39082,915.45,73.97,35.31,80.94,18.98
Punjab,Kapurthala,31.336592638036837,75.47641165644177,36,815168,336124,10190,334,0,276707,110555,161206,9732,912.14,70.73,34.86,80.43,19.36
Punjab,Ludhiana,30.76596397379912,75.83110851528383,41,3498739,1502403,77713,1254,0,923358,488757,703624,58589,873.17,73.18,36.72,82.36,17.56
Punjab,Mansa,29.919547714285724,75.4304922857143,47,769751,156539,10375,493,0,258878,39414,140099,2673,883.27,55.03,42.68,80.67,18.98
Punjab,Moga,30.756540067340065,75.1600845117845,42,995746,158414,9388,365,0,363417,89445,183396,7897,893.34,63.06,36.07,79.76,19.56
Punjab,Muktsar,30.31243303303303,74.5518747747748,44,901896,254920,4333,433,0,381554,76441,166585,4571,896.25,58.19,37.18,81.8,18.0
Punjab,Patiala,30.214540380693364,76.27505893949697,48,1895686,783306,40043,1410,0,465359,209192,352929,24274,890.92,66.82,34.83,82.27,17.68
Punjab,Rupnagar,30.910937330754347,76.53743500967126,51,684627,304481,14492,143,0,180905,67749,129123,6600,915.12,73.43,34.13,80.44,19.24
Punjab,Sangrur,30.185045204336895,75.89437014178496,53,1655169,389410,179116,1038,0,461609,135280,305557,10736,885.1,60.54,34.36,80.93,18.83
Rajasthan,Ajmer,26.199300378787903,74.6990419191919,119,2583052,2201663,314159,184,63482,478027,171799,393498,13499,950.82,59.1,40.79,84.82,15.02
Rajasthan,Alwar,27.55271738035265,76.65359630562563,104,3674179,3039279,547335,348,289249,653036,123478,485723,9750,894.86,59.4,46.5,86.62,13.34
Rajasthan,Banswara,23.453642032967014,74.44246868131869,125,1797485,1701234,48834,109,1372999,80091,34189,120603,2324,980.15,46.14,50.99,86.75,12.05
Rajasthan,Baran,24.98023243243244,76.86210651828291,128,1222755,1133349,79984,48,276857,221184,32685,161310,1363,928.8,56.7,45.19,85.75,14.16
Rajasthan,Barmer,25.77070908045978,71.50297126436782,115,2603751,2244882,321192,34,176257,436414,39580,126494,2766,901.91,45.64,46.18,86.75,12.54
Rajasthan,Bharatpur,27.32411858037578,77.21752077244258,105,2548462,2143046,371286,18,54090,557305,61113,288723,4179,879.78,58.11,42.03,86.56,12.91
Rajasthan,Bhilwara,25.45119767759564,74.63947595628417,122,2408523,2224839,142427,60,229273,407947,93768,373644,6207,973.01,52.15,47.67,84.24,15.16
Rajasthan,Bikaner,28.12489068322981,73.26943322981371,101,2363937,2073356,235741,79,7779,493646,108812,220793,7607,905.17,54.1,41.72,87.19,12.19
Rajasthan,Bundi,25.48580716049379,75.79984074074079,121,1110906,1017688,66609,24,228549,210788,33406,136969,1392,924.78,52.66,47.36,85.91,14.04
Rajasthan,Chittaurgarh,24.631623761665463,74.80010997846382,126,1544338,1413163,97855,136,201546,250224,59190,268172,4941,971.9,53.22,51.98,82.78,16.77
Rajasthan,Churu,28.29330375536484,74.65846427038629,102,2039547,1777879,249736,127,11245,451721,74197,231696,2577,939.75,56.35,44.27,85.9,13.34
Rajasthan,Dausa,26.91234817629181,76.57342097264443,109,1634409,1582335,45488,115,433344,354337,35600,195277,1719,905.38,57.39,41.88,86.02,12.86
Rajasthan,Dhaulpur,26.72397054945053,77.74476219780222,106,1206516,1127520,72258,21,58594,245695,24561,96086,1330,845.82,56.62,43.37,88.19,11.72
Rajasthan,Dungarpur,23.75104807692308,73.84765641025645,124,1388552,1340065,28662,853,983437,52267,26351,141275,1477,993.52,49.09,46.2,85.42,13.82
Rajasthan,Ganganagar,29.256785412667963,73.56192303262948,99,1969168,1437144,50688,164,13477,720412,88543,283142,6295,887.37,60.6,46.35,84.81,14.4
Rajasthan,Hanumangarh,29.1813351791531,74.74632573289902,100,1774692,1433067,118673,138,14289,494189,55515,243163,3360,905.84,58.27,47.07,85.15,13.66
Rajasthan,Jaipur,27.033459290187885,75.77117286012533,110,6626178,5819980,687452,257,527966,1003302,570997,990085,76565,910.38,64.91,37.2,86.59,13.34
Rajasthan,Jaisalmer,26.86900838548185,71.18371877346682,114,669919,497045,168129,34,42429,99134,12431,43141,754,852.1,46.07,43.13,87.96,11.94
Rajasthan,Jalor,25.07578093797277,72.18647261724662,116,1828730,1732852,78990,82,178719,357196,39745,161845,1585,952.45,45.36,49.03,85.69,13.64
Rajasthan,Jhalawar,24.24725541474657,76.11242891705065,129,1411129,1299751,96164,42,182229,243582,38909,220428,1750,946.0,52.43,48.61,84.8,15.14
Rajasthan,Jhunjhunun,28.13517401247401,75.52840893970894,103,2137045,1905682,228178,85,41629,360709,131987,297559,4828,950.04,64.12,41.86,83.9,15.45
Rajasthan,Jodhpur,26.678460838536967,73.00450847457628,113,3687165,3224399,411558,80,118924,608024,197135,408808,19335,916.48,55.1,40.4,86.68,13.27
Rajasthan,Karauli,26.51901555555556,76.96081818181815,107,1458248,1370977,81553,413,324960,354465,28296,132079,1059,860.87,55.26,43.12,86.26,13.17
Rajasthan,Kota,25.175718080000014,76.18618928000001,127,1951014,1661307,243993,286,183816,405408,165563,339899,12843,910.58,66.55,38.38,85.77,14.12
Rajasthan,Nagaur,27.07862016048146,74.14215667001012,112,3307743,2833443,454487,276,10418,699911,97267,347344,4449,949.95,53.17,43.11,85.93,14.01
Rajasthan,Pali,25.80490393541874,73.55285640766907,118,2037573,1870543,143476,52,144578,398096,94821,326793,4043,987.06,53.28,41.34,82.23,16.85
Rajasthan,Rajsamand,25.24894767441859,73.96570215946844,123,1156597,1105676,33677,68,160809,148168,36073,193276,1989,989.54,53.53,47.63,83.2,16.74
Rajasthan,Sawai Madhopur,26.251081180223288,76.4219283891548,108,1335551,1165505,155681,42,285848,278789,40116,140947,1887,897.01,55.54,43.28,86.18,13.72
Rajasthan,Sikar,27.64644058641976,75.29317422839503,111,2677333,2342076,327583,15,75349,418806,131342,339457,5647,947.17,61.71,37.59,85.08,14.24
Rajasthan,Sirohi,24.7976905263158,72.75309131578943,117,1036346,996562,30479,56,292470,201863,47182,134089,2146,939.88,46.01,40.51,86.23,13.73
Rajasthan,Tonk,26.153935071707927,75.79192216427637,120,1421326,1243527,153146,30,178207,287903,32359,158264,1908,952.01,52.74,45.67,85.43,14.46
Rajasthan,Udaipur,24.44076752136749,73.84029839743584,130,3068420,2869976,104307,373,1525289,188525,128320,357846,14211,958.4,51.58,44.51,85.25,14.7
Sikkim,East,27.29600352941175,88.74908392156858,93,1709346,1410852,178807,366,0,281422,327253,352758,80037,883.58,79.15,33.91,84.6,15.33
Tamil Nadu,Ariyalur,11.190514836795256,79.22249643916912,616,754894,708397,7942,42,10722,176230,39642,177502,1749,1014.65,63.67,47.67,79.03,20.9
Tamil Nadu,Chennai,13.058098905608748,80.28139151846806,603,4646732,3751322,439270,1759,10061,779667,910262,1096334,217368,989.32,81.27,39.11,80.5,19.35
Tamil Nadu,Coimbatore,10.871376995940452,77.07619012178621,632,3458045,3044145,211035,237,28342,535911,675153,896325,63273,999.68,76.23,45.34,77.98,21.91
Tamil Nadu,Cuddalore,11.57587300613498,79.63002365371497,617,2605914,2391675,123749,138,15702,763944,244610,598412,15396,986.67,69.66,44.89,81.7,18.17
Tamil Nadu,Dharmapuri,12.300141200000006,78.11509813333339,630,1506843,1452956,38304,87,63044,245392,104785,337972,3651,946.06,60.9,49.85,82.19,17.75
Tamil Nadu,Dindigul,10.377801390820574,77.78011279554937,612,2159775,1879494,105012,138,8064,452376,209640,500057,9155,998.06,68.61,51.17,79.34,20.54
Tamil Nadu,Erode,11.267012155963302,77.42034334862392,610,2251744,2115455,76098,157,21880,369483,371015,595211,18604,992.93,66.29,53.1,75.85,24.08
Tamil Nadu,Kancheepuram,12.496424756511884,80.08820360135913,604,3998252,3537399,173785,756,41210,948081,622095,961161,100322,986.26,75.37,41.86,81.96,17.91
Tamil Nadu,Kanniyakumari,8.183466300191206,77.32053064053538,629,1870374,909872,78590,10,7282,74249,199188,465692,15673,1019.09,82.8,36.34,77.18,22.77
Tamil Nadu,Karur,10.79532776617955,78.08749686847604,613,1064493,993666,53292,79,575,221385,135831,264949,4915,1015.38,68.3,51.04,77.24,22.72
Tamil Nadu,Madurai,9.904313833333331,78.01366033333332,623,3038252,2760502,168881,305,11096,408976,391821,754141,34097,990.37,74.83,44.59,80.37,19.55
Tamil Nadu,Nagapattinam,10.789468161718286,79.79437299431483,618,1616450,1435072,128617,110,3756,509767,143846,381940,5585,1025.3,75.04,41.57,79.91,20.03
Tamil Nadu,Namakkal,11.33766638477801,78.14624841437633,609,1726601,1673652,32483,199,57059,345392,265276,441044,8960,986.24,68.12,52.02,76.93,23.0
Tamil Nadu,Perambalur,11.260137758112096,78.86034011799416,615,565223,521658,32702,26,2584,175289,49390,135751,1507,1003.22,66.49,53.03,79.54,20.37
Tamil Nadu,Pudukkottai,10.130514816433578,79.05444484265728,621,1618345,1428784,114194,293,1283,284804,82967,354493,4494,1014.9,68.62,47.07,80.72,19.23
Tamil Nadu,Ramanathapuram,9.31286995153476,78.99185362412462,626,1353445,1047411,208038,36,1105,249008,100484,291400,5172,982.61,72.33,44.55,81.13,18.68
Tamil Nadu,Salem,11.629324202127655,78.2478257978723,608,3482056,3326357,95487,246,119369,580512,448968,835377,20660,954.49,65.64,48.65,79.46,20.48
Tamil Nadu,Sivaganga,9.960306580645158,78.56535729032255,622,1339101,1186078,74310,24,790,227746,113822,314270,5773,1002.63,71.67,46.31,78.98,20.94
Tamil Nadu,Thanjavur,10.387692255892237,79.3194869107745,620,2405890,2075870,190814,148,3561,455062,223044,555582,13495,1034.72,74.44,40.49,79.19,20.75
Tamil Nadu,Theni,9.924066666666668,77.43458833333332,624,1245899,1148990,56751,74,1835,258200,147529,312310,4667,991.26,69.84,47.49,79.66,20.25
Tamil Nadu,Thiruvallur,13.275858101752885,80.19724702864492,602,3728104,3325823,143093,530,47243,821646,621907,909400,75634,987.2,74.88,41.26,82.62,17.26
Tamil Nadu,Thiruvarur,10.368927409395978,79.60322893959727,619,1264277,1132785,96092,64,3034,430927,109580,303114,4416,1017.38,74.86,42.73,79.49,20.34
Tamil Nadu,Tiruvannamalai,12.419318947368414,79.23265631578953,606,2464875,2294369,91636,110,90954,565329,176242,549077,6445,994.41,66.0,50.23,80.54,19.38
Tamil Nadu,Vellore,12.784882632293078,79.02643283582084,605,3936331,3397857,414760,251,72955,860212,417535,865913,20623,1006.6,70.47,42.92,81.61,18.31
Tamil Nadu,Virudhunagar,9.468872195892564,77.87641469194315,625,1942288,1822626,47838,75,2294,399831,235005,505950,10219,1007.1,72.02,48.92,80.45,19.47
Tripura,Dhalai,23.781360477941163,91.94654283088232,291,378230,307120,8256,206,210608,61688,5532,46875,273,944.19,73.03,41.2,86.68,13.29
Tripura,North Tripura,24.121739755351683,92.17842538226292,292,693947,507967,105737,70,179426,114968,19631,81601,997,966.64,74.99,35.83,85.52,14.45
Tripura,South Tripura,23.211874098057383,91.6065807585568,290,876001,736015,49258,808,344835,140168,20246,133744,948,957.35,73.84,41.88,84.73,15.23
Tripura,West Tripura,23.780166241299337,91.41310788863107,289,1725739,1512801,152791,430,431944,338094,103228,314567,6394,962.34,78.89,40.46,83.45,16.49
Uttar Pradesh,Agra,26.99512974910393,78.05278291517321,146,4418797,3922718,411313,384,7255,991325,251013,536402,27183,868.45,60.66,31.45,87.43,12.4
Uttar Pradesh,Aligarh,27.93748576850093,78.00146831119557,143,3673889,2904140,729283,91,629,755254,153283,268120,13634,882.12,56.96,31.97,86.17,12.87
Uttar Pradesh,Allahabad,25.392038662316445,82.05172446982063,175,5954391,5102041,796756,305,7955,1309851,204357,391542,24122,901.26,61.56,35.47,85.64,13.74
Uttar Pradesh,Ambedkar Nagar,26.39119025974028,82.68282142857147,178,2397888,1985654,401678,33,746,591125,21512,99581,2509,977.79,62.01,32.84,84.02,15.31
Uttar Pradesh,Auraiya,26.66892394014961,79.42637057356607,162,1379545,1273546,101963,444,150,391622,32687,65479,2404,864.15,67.47,32.04,85.33,14.65
Uttar Pradesh,Azamgarh,26.008290954773837,83.01220251256285,191,4613913,3878626,718692,226,9327,1171378,49699,183381,6652,1019.21,60.08,29.74,84.44,15.17
Uttar Pradesh,Baghpat,29.045793499999988,77.30266300000001,139,1303048,917474,364583,25,14,149060,44732,119121,2989,861.31,61.24,31.98,84.45,14.93
Uttar Pradesh,Bahraich,27.691776300578027,81.46779783237004,180,3487731,2291892,1169330,38,11159,509307,38940,85814,2681,891.51,40.09,33.03,86.88,12.79
Uttar Pradesh,Ballia,25.86075638297873,84.03651978723408,193,3239774,3004240,213440,64,110114,494698,62157,119972,4672,936.62,60.61,31.47,83.35,15.51
Uttar Pradesh,Balrampur,27.449076537911324,82.47158326180256,182,2148665,1333242,805975,87,24887,277212,16229,57400,1551,927.54,40.41,35.38,86.45,13.22
Uttar Pradesh,Banda,25.351885902503284,80.52487391304344,170,1799410,1637549,157612,50,163,387855,26907,73522,1655,862.98,55.74,39.0,84.97,14.74
Uttar Pradesh,Bara Banki,26.922777025232424,81.35762350597606,176,3260699,2505444,737106,211,610,864559,60554,108116,3159,910.11,51.9,36.58,84.42,13.66
Uttar Pradesh,Bareilly,28.51101940789474,79.43187072368416,150,4448359,2830768,1536534,339,3227,557150,210687,272830,15164,886.76,49.27,31.52,86.46,11.56
Uttar Pradesh,Basti,26.833880454545447,82.69790590909092,185,2464464,2082976,364510,99,3620,513959,37593,108101,3423,963.29,56.56,31.8,84.94,14.77
Uttar Pradesh,Bijnor,29.313974259681096,78.45098815489754,134,3682713,2032081,1585210,41,3058,787444,128042,268353,7303,916.87,57.98,29.54,86.64,12.22
Uttar Pradesh,Bulandshahr,28.34875862068968,78.01082758620684,142,3499171,2707195,777407,86,198,725600,124641,223922,7865,896.3,58.06,33.53,85.74,13.51
Uttar Pradesh,Chandauli,25.1180859611231,83.25307062634984,196,1952756,1727869,215081,1175,41725,446786,32433,99602,3492,918.41,60.15,33.42,84.99,14.74
Uttar Pradesh,Chitrakoot,25.159924623803,81.07666087551297,171,991730,955372,34559,27,366,266655,11637,41046,827,879.27,53.55,39.75,85.94,13.78
Uttar Pradesh,Deoria,26.42218856548857,83.8244070686071,190,3100946,2730957,358539,146,109894,468663,60348,150001,4469,1016.96,60.47,28.26,84.2,15.52
Uttar Pradesh,Etah,27.591155309734443,78.70021858407083,201,1774480,1611126,146346,18,140,281011,37027,69591,2635,873.12,59.47,30.77,86.4,13.38
Uttar Pradesh,Etawah,26.78817670157068,79.07621806282728,161,1581810,1457892,113961,94,169,388283,47520,113098,2964,870.07,67.14,31.99,84.82,15.03
Uttar Pradesh,Faizabad,26.60589185185181,82.00783530864202,177,2470996,2094271,365806,185,931,555047,58328,127754,4746,961.69,58.72,33.64,84.09,14.87
Uttar Pradesh,Farrukhabad,27.45063297872342,79.4406284574468,159,1885204,1596278,276846,100,230,312712,59209,88081,2624,873.51,57.96,31.42,86.77,13.09
Uttar Pradesh,Fatehpur,25.8374362030905,80.85416203090509,172,2632733,2274674,350700,47,340,651480,43492,75263,3385,901.27,57.44,40.41,84.65,15.02
Uttar Pradesh,Firozabad,27.20963993055552,78.42660624999998,147,2498156,2140745,314812,61,2565,473890,100919,196080,5834,875.43,60.92,30.48,86.66,12.52
Uttar Pradesh,Gautam Buddha Nagar,28.393311038961038,77.52462467532465,141,1648115,1394025,215500,91,2215,216105,193902,257586,53181,851.37,68.14,34.53,86.08,11.46
Uttar Pradesh,Ghaziabad,28.74997308584685,77.67441879350343,140,4681645,3414427,1186776,265,3968,773463,501592,695130,78116,881.06,66.71,32.48,86.1,11.96
Uttar Pradesh,Ghazipur,25.624724775583484,83.5360854578097,195,3620268,3233790,368153,184,28712,726641,36798,105767,5309,951.55,60.7,33.27,83.11,15.37
Uttar Pradesh,Gonda,27.157215552099505,82.0226888024882,183,3433919,2739076,678615,57,870,531973,45517,104084,4313,921.45,48.92,34.09,86.14,13.53
Uttar Pradesh,Gorakhpur,26.63315886792452,83.3549560377358,188,4440895,4009037,403847,207,18172,936061,149727,296619,14597,949.66,60.81,30.44,84.39,14.85
Uttar Pradesh,Hardoi,27.337409090909137,80.26411767676768,155,4092845,3508131,556219,98,349,1274505,60689,95508,3845,867.65,54.28,32.23,85.6,13.68
Uttar Pradesh,Jalaun,26.067954587155988,79.36686911314993,165,1689974,1509708,171581,145,832,468178,42616,104176,2217,865.12,63.62,36.73,83.61,16.27
Uttar Pradesh,Jaunpur,25.70141280913127,82.54315351934063,194,4494204,3981502,483750,114,4736,990345,56508,181467,8002,1023.99,60.78,31.98,83.52,15.35
Uttar Pradesh,Jhansi,25.45581535234902,78.89954580536917,166,1998603,1823930,147842,311,3873,562505,94342,183340,8517,890.05,65.27,40.77,84.16,15.43
Uttar Pradesh,Jyotiba Phule Nagar,28.870498984771597,78.39009365482241,137,1840221,1075440,750368,21,164,318001,55064,89329,2825,910.03,53.42,32.56,87.95,11.73
Uttar Pradesh,Kannauj,26.993988617886185,79.64437940379408,160,1656616,1375788,273967,65,15,309980,32510,61491,2488,878.73,61.4,31.67,86.38,13.49
Uttar Pradesh,Kanpur Dehat,26.43047641196011,79.98710083056478,163,1796184,1612968,176327,103,801,460544,23831,49753,2682,864.7,65.15,35.01,84.44,15.38
Uttar Pradesh,Kaushambi,25.53587532051282,81.41811282051287,174,1599596,1372381,220423,3,193,555397,22034,43753,1503,907.72,50.85,39.95,85.68,13.16
Uttar Pradesh,Kushinagar,26.892530675909864,83.92261542461007,189,3564544,2928462,620244,133,80269,544231,29304,127331,3486,960.64,54.84,31.34,84.43,14.04
Uttar Pradesh,Lalitpur,24.58877161016945,78.60082330508473,167,1221592,1163804,33724,41,71610,240519,20720,77082,1079,905.73,52.49,41.2,86.66,13.07
Uttar Pradesh,Lucknow,26.838233589251463,80.89706026871404,157,4589838,3537787,985070,504,7506,948294,469747,582769,68506,916.84,68.13,33.61,83.66,14.93
Uttar Pradesh,Mahoba,25.34529670138888,79.67863003472216,169,875958,815142,57454,157,647,220898,12874,42936,1316,878.3,55.72,39.92,83.16,15.68
Uttar Pradesh,Mainpuri,27.17386862302482,79.03501851015807,148,1868529,1746649,100723,38,478,368206,43074,79022,2642,880.99,64.43,30.02,85.41,14.22
Uttar Pradesh,Mathura,27.59390432801821,77.62153416856502,145,2547184,2310776,216933,126,1520,506580,107867,281239,8726,863.17,59.19,33.01,83.87,12.87
Uttar Pradesh,Mau,26.01082203791469,83.50582654028433,192,2205968,1769937,428555,129,22915,474537,40087,149908,2656,978.96,61.79,31.58,84.77,14.65
Uttar Pradesh,Meerut,29.02957625698323,77.80611005586593,138,3443689,2183255,1185643,236,3390,624149,236071,425624,23717,886.18,62.19,31.67,85.54,13.12
Uttar Pradesh,Mirzapur,25.10207959183675,82.60126628571429,199,2496970,2292534,195765,27,20132,661129,43500,145997,4447,902.74,57.22,35.32,85.81,13.89
Uttar Pradesh,Moradabad,28.851770406189537,78.73580193423597,135,4772006,2488265,2248392,382,685,731406,179473,281758,11690,906.37,47.44,29.71,87.11,11.01
Uttar Pradesh,Muzaffarnagar,29.470507977736563,77.64017847866423,133,4143512,2382914,1711453,60,317,561250,147785,368153,10077,889.05,58.34,31.17,86.48,13.14
Uttar Pradesh,Pilibhit,28.52024175035868,79.90103974175037,151,2031007,1449007,489686,45,1714,333558,47723,83006,2870,894.59,52.24,30.46,87.16,12.62
Uttar Pradesh,Pratapgarh,25.864842731707316,81.93530048780492,131,867848,827293,25597,27,550427,60429,17984,71612,716,982.55,46.27,55.46,86.51,13.32
Uttar Pradesh,Pratapgarh,25.864842731707316,81.93530048780492,173,3209141,2731351,452394,43,723,709252,46358,140538,5149,998.11,60.19,33.24,84.33,15.33
Uttar Pradesh,Rae Bareli,26.253902840059787,81.22260463378181,158,3405559,2975998,413243,602,1756,1030367,65080,247856,5184,943.21,57.72,35.37,84.94,14.88
Uttar Pradesh,Rampur,28.83244727272725,79.10977333333337,136,2335819,1073890,1181337,63,358,307936,62281,131112,3847,908.52,44.68,31.56,88.5,11.08
Uttar Pradesh,Saharanpur,30.03381165217392,77.59905147826095,132,3466382,1966892,1454052,135,980,764450,149035,404499,9699,889.96,59.92,29.93,86.5,12.52
Uttar Pradesh,Sant Kabir Nagar,26.791596516393444,83.0387764344262,186,1715183,1300586,404410,35,1593,369039,17671,79525,2031,972.25,55.68,31.45,85.17,14.6
Uttar Pradesh,Shahjahanpur,27.991389350649328,79.8302275324675,152,3006538,2412595,527581,84,508,532673,91958,115163,3889,871.6,49.59,29.68,86.93,12.26
Uttar Pradesh,Sitapur,27.501995963091108,80.85288881199547,154,4483992,3555450,893725,79,1602,1446427,74072,102040,3874,887.79,50.93,31.73,86.16,13.12
Uttar Pradesh,Sonbhadra,24.46693268858798,83.06816324951639,200,1862559,1738769,103567,1907,385018,421661,40467,95582,5149,917.51,52.92,39.21,87.13,12.77
Uttar Pradesh,Sultanpur,26.2846386419753,82.05710456790123,179,3797117,3119590,650261,336,696,851587,55055,233701,5956,983.26,58.99,32.73,84.41,15.28
Uttar Pradesh,Unnao,26.63163990895297,80.636773292868,156,3108367,2732016,363453,31,2926,948588,70484,99466,3476,906.87,57.06,36.18,83.66,14.59
Uttar Pradesh,Varanasi,25.36057088888889,82.82529666666672,197,3676841,3107681,546987,298,28617,486958,202055,336056,19214,913.17,65.38,33.2,84.76,14.46
Uttaranchal,Almora,29.683532133676103,79.50165064267351,64,622506,611250,7752,6,1281,150995,40199,109876,1830,1138.6,70.12,47.9,79.17,20.72
Uttaranchal,Bageshwar,29.98703393393397,79.83954354354357,63,259898,257509,1440,16,1982,72061,13352,47083,435,1090.46,69.06,47.57,80.05,19.88
Uttaranchal,Chamoli,30.58338611464965,79.56281095541402,57,391605,385818,4395,23,12260,79317,27853,71524,899,1018.68,71.64,46.2,82.45,17.33
Uttaranchal,Champawat,29.29142393939393,80.07720212121217,65,259648,249563,8693,6,1339,47383,18785,37725,548,980.16,68.45,38.35,83.82,16.14
Uttaranchal,Pithoragarh,30.14720631868129,80.34229230769236,62,483439,475105,6015,30,19535,120378,45365,95421,1344,1020.17,71.48,44.78,80.72,19.14
Uttaranchal,Tehri Garhwal,30.463700918635173,78.48783792650917,59,618931,609835,7374,109,875,102130,50929,117239,1366,1077.05,65.92,45.31,82.03,17.77
Uttaranchal,Udham Singh Nagar,29.02779577677222,79.45629004524895,67,1648902,1104452,372267,159,123037,238264,116576,254802,7883,920.04,62.94,35.87,87.03,12.87
Uttaranchal,Uttarkashi,30.968958552036234,78.56880615384617,56,330086,324859,3554,105,3512,80567,21374,52621,602,957.84,65.17,47.65,84.35,15.52
West Bengal,Bankura,23.081280892857155,87.12640053571437,339,3596674,3033581,290450,260694,368690,1174447,45126,334670,4273,956.74,62.08,40.77,82.22,17.73
West Bengal,Barddhaman,23.444453888888884,87.8150581111111,335,7717563,6008472,1599764,44968,489447,2115719,292585,1049943,32323,945.5,67.99,37.72,83.12,16.75
West Bengal,Birbhum,24.06389342723,87.65153089201888,334,3502404,2181515,1298054,6051,242484,1033140,57010,333752,5210,955.65,61.63,38.02,84.53,15.4
West Bengal,Dakshin Dinajpur,25.342094363021435,88.69821679819614,331,1676276,1232850,412788,2786,275366,482754,37186,168069,2518,955.53,64.65,41.94,83.71,16.19
West Bengal,Darjiling,26.839619571045585,88.33145067024122,327,1846823,1366681,105086,15523,397389,317275,141897,297176,10943,970.45,71.24,37.02,84.17,15.7
West Bengal,Haora,22.401674174428507,87.99421176968654,341,4850029,3535844,1270641,1265,15094,718951,325053,796953,30751,939.38,74.33,37.52,82.69,17.18
West Bengal,Hugli,22.87929264705881,88.00010264705891,338,5519145,4574569,870204,49050,229243,1344021,319815,965258,31725,960.86,73.9,39.01,80.71,19.22
West Bengal,Jalpaiguri,26.62642031250004,89.04154375000003,328,3872846,3156781,445817,23816,731704,1458278,138522,382500,9322,952.96,64.52,39.06,85.08,14.86
West Bengal,Kolkata,22.550581481481483,88.3527648148148,342,4496694,3440290,926414,1452,10684,241932,623579,927602,136618,907.99,79.8,39.93,76.92,22.57
West Bengal,Maldah,25.08026802575105,88.17191684549356,332,3988845,1914352,2045151,7929,313984,835430,54213,297716,5357,944.32,52.31,38.55,86.9,13.04
West Bengal,Murshidabad,24.25950655391121,88.16816860465121,333,7103807,2359061,4707573,7429,91035,897534,92742,541169,7951,958.29,57.09,36.46,85.98,13.96
West Bengal,Nadia,23.56410971055088,88.58293034547152,336,5167600,3728482,1382682,16893,140700,1546917,168314,623729,12787,947.27,67.35,35.66,81.87,18.08
West Bengal,Puruliya,23.254192328767108,86.3968532876713,340,2930115,2373120,227249,309029,540652,567767,30675,189889,3551,957.33,55.46,42.65,83.37,16.52
West Bengal,Uttar Dinajpur,26.044619165196977,88.23595232216337,330,3007134,1482943,1501170,1622,162816,807950,39138,199307,2883,938.75,49.54,35.77,87.16,12.81
